<TravelingSalesmanTour id="1">
  <id>0</id>
  <name>europe40</name>
  <cityList id="2">
    <City id="3">
      <id>1</id>
      <name>Brussels</name>
      <latitude>50.79714</latitude>
      <longitude>4.361572</longitude>
    </City>
    <City id="4">
      <id>2</id>
      <name>Dublin</name>
      <latitude>53.309435</latitude>
      <longitude>-6.28418</longitude>
    </City>
    <City id="5">
      <id>3</id>
      <name>London</name>
      <latitude>51.465872</latitude>
      <longitude>-0.131836</longitude>
    </City>
    <City id="6">
      <id>4</id>
      <name>Paris</name>
      <latitude>48.797698</latitude>
      <longitude>2.351074</longitude>
    </City>
    <City id="7">
      <id>5</id>
      <name>Reykjavik</name>
      <latitude>64.133219</latitude>
      <longitude>-21.886139</longitude>
    </City>
    <City id="8">
      <id>6</id>
      <name>Luxembourg</name>
      <latitude>49.537568</latitude>
      <longitude>6.130371</longitude>
    </City>
    <City id="9">
      <id>7</id>
      <name>Amsterdam</name>
      <latitude>52.32012</latitude>
      <longitude>4.888916</longitude>
    </City>
    <City id="10">
      <id>8</id>
      <name>Berlin</name>
      <latitude>52.480996</latitude>
      <longitude>13.414307</longitude>
    </City>
    <City id="11">
      <id>9</id>
      <name>Copenhagen</name>
      <latitude>55.620139</latitude>
      <longitude>12.579346</longitude>
    </City>
    <City id="12">
      <id>10</id>
      <name>Oslo</name>
      <latitude>59.876442</latitude>
      <longitude>10.766602</longitude>
    </City>
    <City id="13">
      <id>11</id>
      <name>Stockholm</name>
      <latitude>59.292446</latitude>
      <longitude>18.061523</longitude>
    </City>
    <City id="14">
      <id>12</id>
      <name>Helsinki</name>
      <latitude>60.134576</latitude>
      <longitude>24.949951</longitude>
    </City>
    <City id="15">
      <id>13</id>
      <name>Tallinn</name>
      <latitude>59.363808</latitude>
      <longitude>24.763184</longitude>
    </City>
    <City id="16">
      <id>14</id>
      <name>Riga</name>
      <latitude>56.845768</latitude>
      <longitude>24.082031</longitude>
    </City>
    <City id="17">
      <id>15</id>
      <name>Vilnius</name>
      <latitude>54.581401</latitude>
      <longitude>25.268555</longitude>
    </City>
    <City id="18">
      <id>16</id>
      <name>Minsk</name>
      <latitude>53.810166</latitude>
      <longitude>27.553711</longitude>
    </City>
    <City id="19">
      <id>17</id>
      <name>Warsaw</name>
      <latitude>52.129891</latitude>
      <longitude>21.005859</longitude>
    </City>
    <City id="20">
      <id>18</id>
      <name>Moscow</name>
      <latitude>55.661888</latitude>
      <longitude>37.617188</longitude>
    </City>
    <City id="21">
      <id>19</id>
      <name>Kiev</name>
      <latitude>50.355742</latitude>
      <longitude>30.541992</longitude>
    </City>
    <City id="22">
      <id>20</id>
      <name>Chisinau</name>
      <latitude>46.916253</latitude>
      <longitude>28.828125</longitude>
    </City>
    <City id="23">
      <id>21</id>
      <name>Bucharest</name>
      <latitude>44.319656</latitude>
      <longitude>26.05957</longitude>
    </City>
    <City id="24">
      <id>22</id>
      <name>Sofia</name>
      <latitude>42.58113</latitude>
      <longitude>23.312988</longitude>
    </City>
    <City id="25">
      <id>23</id>
      <name>Istanbul</name>
      <latitude>40.892477</latitude>
      <longitude>28.981934</longitude>
    </City>
    <City id="26">
      <id>24</id>
      <name>Athens</name>
      <latitude>37.852881</latitude>
      <longitude>23.730469</longitude>
    </City>
    <City id="27">
      <id>25</id>
      <name>Nicosia</name>
      <latitude>35.099537</latitude>
      <longitude>33.365479</longitude>
    </City>
    <City id="28">
      <id>26</id>
      <name>Tirana</name>
      <latitude>41.283861</latitude>
      <longitude>19.80835</longitude>
    </City>
    <City id="29">
      <id>27</id>
      <name>Skopje</name>
      <latitude>41.949141</latitude>
      <longitude>21.456299</longitude>
    </City>
    <City id="30">
      <id>28</id>
      <name>Podgorica</name>
      <latitude>42.38073</latitude>
      <longitude>19.281006</longitude>
    </City>
    <City id="31">
      <id>29</id>
      <name>Belgrade</name>
      <latitude>44.752455</latitude>
      <longitude>20.456543</longitude>
    </City>
    <City id="32">
      <id>30</id>
      <name>Sarajevo</name>
      <latitude>43.784843</latitude>
      <longitude>18.347168</longitude>
    </City>
    <City id="33">
      <id>31</id>
      <name>Zagreb</name>
      <latitude>45.757815</latitude>
      <longitude>15.974121</longitude>
    </City>
    <City id="34">
      <id>32</id>
      <name>Ljubljana</name>
      <latitude>45.994926</latitude>
      <longitude>14.490967</longitude>
    </City>
    <City id="35">
      <id>33</id>
      <name>Rome</name>
      <latitude>41.84283</latitude>
      <longitude>12.491455</longitude>
    </City>
    <City id="36">
      <id>34</id>
      <name>Madrid</name>
      <latitude>40.369427</latitude>
      <longitude>-3.691406</longitude>
    </City>
    <City id="37">
      <id>35</id>
      <name>Lisbon</name>
      <latitude>38.64891</latitude>
      <longitude>-9.140625</longitude>
    </City>
    <City id="38">
      <id>36</id>
      <name>Bern</name>
      <latitude>46.895737</latitude>
      <longitude>7.437744</longitude>
    </City>
    <City id="39">
      <id>37</id>
      <name>Vienna</name>
      <latitude>48.142143</latitude>
      <longitude>16.380615</longitude>
    </City>
    <City id="40">
      <id>38</id>
      <name>Prague</name>
      <latitude>50.066778</latitude>
      <longitude>14.419556</longitude>
    </City>
    <City id="41">
      <id>39</id>
      <name>Bratislava</name>
      <latitude>48.098138</latitude>
      <longitude>17.105713</longitude>
    </City>
    <City id="42">
      <id>40</id>
      <name>Budapest</name>
      <latitude>47.440969</latitude>
      <longitude>19.039307</longitude>
    </City>
  </cityList>
  <domicileList id="43">
    <Domicile id="44">
      <id>1</id>
      <city reference="3"/>
    </Domicile>
  </domicileList>
  <visitList id="45">
    <Visit id="46">
      <id>2</id>
      <city reference="4"/>
    </Visit>
    <Visit id="47">
      <id>3</id>
      <city reference="5"/>
    </Visit>
    <Visit id="48">
      <id>4</id>
      <city reference="6"/>
    </Visit>
    <Visit id="49">
      <id>5</id>
      <city reference="7"/>
    </Visit>
    <Visit id="50">
      <id>6</id>
      <city reference="8"/>
    </Visit>
    <Visit id="51">
      <id>7</id>
      <city reference="9"/>
    </Visit>
    <Visit id="52">
      <id>8</id>
      <city reference="10"/>
    </Visit>
    <Visit id="53">
      <id>9</id>
      <city reference="11"/>
    </Visit>
    <Visit id="54">
      <id>10</id>
      <city reference="12"/>
    </Visit>
    <Visit id="55">
      <id>11</id>
      <city reference="13"/>
    </Visit>
    <Visit id="56">
      <id>12</id>
      <city reference="14"/>
    </Visit>
    <Visit id="57">
      <id>13</id>
      <city reference="15"/>
    </Visit>
    <Visit id="58">
      <id>14</id>
      <city reference="16"/>
    </Visit>
    <Visit id="59">
      <id>15</id>
      <city reference="17"/>
    </Visit>
    <Visit id="60">
      <id>16</id>
      <city reference="18"/>
    </Visit>
    <Visit id="61">
      <id>17</id>
      <city reference="19"/>
    </Visit>
    <Visit id="62">
      <id>18</id>
      <city reference="20"/>
    </Visit>
    <Visit id="63">
      <id>19</id>
      <city reference="21"/>
    </Visit>
    <Visit id="64">
      <id>20</id>
      <city reference="22"/>
    </Visit>
    <Visit id="65">
      <id>21</id>
      <city reference="23"/>
    </Visit>
    <Visit id="66">
      <id>22</id>
      <city reference="24"/>
    </Visit>
    <Visit id="67">
      <id>23</id>
      <city reference="25"/>
    </Visit>
    <Visit id="68">
      <id>24</id>
      <city reference="26"/>
    </Visit>
    <Visit id="69">
      <id>25</id>
      <city reference="27"/>
    </Visit>
    <Visit id="70">
      <id>26</id>
      <city reference="28"/>
    </Visit>
    <Visit id="71">
      <id>27</id>
      <city reference="29"/>
    </Visit>
    <Visit id="72">
      <id>28</id>
      <city reference="30"/>
    </Visit>
    <Visit id="73">
      <id>29</id>
      <city reference="31"/>
    </Visit>
    <Visit id="74">
      <id>30</id>
      <city reference="32"/>
    </Visit>
    <Visit id="75">
      <id>31</id>
      <city reference="33"/>
    </Visit>
    <Visit id="76">
      <id>32</id>
      <city reference="34"/>
    </Visit>
    <Visit id="77">
      <id>33</id>
      <city reference="35"/>
    </Visit>
    <Visit id="78">
      <id>34</id>
      <city reference="36"/>
    </Visit>
    <Visit id="79">
      <id>35</id>
      <city reference="37"/>
    </Visit>
    <Visit id="80">
      <id>36</id>
      <city reference="38"/>
    </Visit>
    <Visit id="81">
      <id>37</id>
      <city reference="39"/>
    </Visit>
    <Visit id="82">
      <id>38</id>
      <city reference="40"/>
    </Visit>
    <Visit id="83">
      <id>39</id>
      <city reference="41"/>
    </Visit>
    <Visit id="84">
      <id>40</id>
      <city reference="42"/>
    </Visit>
  </visitList>
</TravelingSalesmanTour>